quote_id,policy_id,event_date,generated_timestamp_utc,account_name,country,iso_code,region,city,latitude,longitude,asset_type,peril,hazard_score,insured_value_usd,pricing_variant,quoted_premium_usd,expected_loss_usd,bound_flag
QTE-0015-7366,POL-0015-7366,2026-07-13,2026-07-13T10:18:45.954626+00:00,Paris Global Assets Ltd,France,FRA,Europe,Paris,48.8566,2.3522,Warehouse,Drought,2,44000000,B,376200.0,352000.0,1
QTE-0015-7367,,2026-07-13,2026-07-13T10:18:45.954626+00:00,Mumbai Global Assets Ltd,India,IND,Asia,Mumbai,19.076,72.8777,Factory,Wildfire,3,18500000,A,194250.0,222000.0,0
QTE-0015-7368,,2026-07-13,2026-07-13T10:18:45.954626+00:00,Mexico City Global Assets Ltd,Mexico,MEX,North America,Mexico City,19.4326,-99.1332,Warehouse,Drought,2,17500000,A,157500.0,140000.0,0
QTE-0015-7369,POL-0015-7369,2026-07-13,2026-07-13T10:18:45.954626+00:00,Sydney Global Assets Ltd,Australia,AUS,Oceania,Sydney,-33.8688,151.2093,Energy Site,Drought,4,24000000,A,288000.0,384000.0,1
QTE-0015-7370,POL-0015-7370,2026-07-13,2026-07-13T10:18:45.954626+00:00,Cairo Global Assets Ltd,Egypt,EGY,Africa,Cairo,30.0444,31.2357,Office,Wildfire,3,19000000,B,189525.0,228000.0,1
