quote_id,policy_id,event_date,generated_timestamp_utc,account_name,country,iso_code,region,city,latitude,longitude,asset_type,peril,hazard_score,insured_value_usd,pricing_variant,quoted_premium_usd,expected_loss_usd,bound_flag
QTE-0002-7301,,2026-06-30,2026-06-30T10:28:51.276762+00:00,São Paulo Global Assets Ltd,Brazil,BRA,South America,São Paulo,-23.5558,-46.6396,Retail Site,Drought,2,32000000,A,288000.0,256000.0,0
QTE-0002-7302,POL-0002-7302,2026-06-30,2026-06-30T10:28:51.276762+00:00,Houston Global Assets Ltd,United States,USA,North America,Houston,29.7604,-95.3698,Warehouse,Drought,2,18000000,B,153900.0,144000.0,1
QTE-0002-7303,POL-0002-7303,2026-06-30,2026-06-30T10:28:51.276762+00:00,Tokyo Global Assets Ltd,Japan,JPN,Asia,Tokyo,35.6762,139.6503,Warehouse,Wildfire,2,14000000,A,126000.0,112000.0,1
QTE-0002-7304,POL-0002-7304,2026-06-30,2026-06-30T10:28:51.276762+00:00,London Global Assets Ltd,United Kingdom,GBR,Europe,London,51.5072,-0.1276,Factory,Wildfire,3,10500000,A,110250.0,126000.0,1
QTE-0002-7305,POL-0002-7305,2026-06-30,2026-06-30T10:28:51.276762+00:00,Mexico City Global Assets Ltd,Mexico,MEX,North America,Mexico City,19.4326,-99.1332,Energy Site,Cyclone,1,16000000,A,120000.0,64000.0,1
