quote_id,policy_id,event_date,generated_timestamp_utc,account_name,country,iso_code,region,city,latitude,longitude,asset_type,peril,hazard_score,insured_value_usd,pricing_variant,quoted_premium_usd,expected_loss_usd,bound_flag
QTE-0016-7371,,2026-07-14,2026-07-14T09:01:11.881729+00:00,Paris Global Assets Ltd,France,FRA,Europe,Paris,48.8566,2.3522,Energy Site,Drought,1,23000000,B,163875.0,92000.0,0
QTE-0016-7372,,2026-07-14,2026-07-14T09:01:11.881729+00:00,Mumbai Global Assets Ltd,India,IND,Asia,Mumbai,19.076,72.8777,Office,Earthquake,2,28000000,B,239400.0,224000.0,0
QTE-0016-7373,,2026-07-14,2026-07-14T09:01:11.881729+00:00,London Global Assets Ltd,United Kingdom,GBR,Europe,London,51.5072,-0.1276,Office,Wildfire,3,38500000,B,384037.5,462000.0,0
QTE-0016-7374,POL-0016-7374,2026-07-14,2026-07-14T09:01:11.881729+00:00,Mexico City Global Assets Ltd,Mexico,MEX,North America,Mexico City,19.4326,-99.1332,Factory,Flood,1,13500000,B,96187.5,54000.0,1
QTE-0016-7375,,2026-07-14,2026-07-14T09:01:11.881729+00:00,Sydney Global Assets Ltd,Australia,AUS,Oceania,Sydney,-33.8688,151.2093,Retail Site,Cyclone,3,37500000,B,374062.5,450000.0,0
